[
    { "id": "berlin",       "name": "Berlin",       "country": "DE", "iata": "BER", "lat": 52.5251, "lon": 13.3694 },
  { "id": "munich",       "name": "Munich",       "country": "DE", "iata": "MUC", "lat": 48.1402, "lon": 11.5583 },
  { "id": "frankfurt",    "name": "Frankfurt",    "country": "DE", "iata": "FRA", "lat": 50.1069, "lon": 8.6631  },
  { "id": "hamburg",      "name": "Hamburg",      "country": "DE", "iata": "HAM", "lat": 53.5528, "lon": 10.0064 },
  { "id": "duesseldorf",  "name": "Düsseldorf",   "country": "DE", "iata": "DUS", "lat": 51.2197, "lon": 6.7941  },
  { "id": "cologne",      "name": "Cologne",      "country": "DE", "iata": "CGN", "lat": 50.9428, "lon": 6.9582  },
  { "id": "stuttgart",    "name": "Stuttgart",    "country": "DE", "iata": "STR", "lat": 48.7843, "lon": 9.1827  },
  { "id": "paris",        "name": "Paris",        "country": "FR", "iata": "CDG", "lat": 48.8449, "lon": 2.3735  },
  { "id": "nice",         "name": "Nice",         "country": "FR", "iata": "NCE", "lat": 43.7047, "lon": 7.2619  },
  { "id": "lyon",         "name": "Lyon",         "country": "FR", "iata": "LYS", "lat": 45.7604, "lon": 4.8596  },
  { "id": "marseille",    "name": "Marseille",    "country": "FR", "iata": "MRS", "lat": 43.3031, "lon": 5.3808  },
  { "id": "toulouse",     "name": "Toulouse",     "country": "FR", "iata": "TLS", "lat": 43.6112, "lon": 1.4537  },
  { "id": "amsterdam",    "name": "Amsterdam",    "country": "NL", "iata": "AMS", "lat": 52.3791, "lon": 4.9003  },
  { "id": "brussels",     "name": "Brussels",     "country": "BE", "iata": "BRU", "lat": 50.8357, "lon": 4.3362  },
  { "id": "zurich",       "name": "Zurich",       "country": "CH", "iata": "ZRH", "lat": 47.3782, "lon": 8.5402  },
  { "id": "geneva",       "name": "Geneva",       "country": "CH", "iata": "GVA", "lat": 46.2100, "lon": 6.1418  },
  { "id": "vienna",       "name": "Vienna",       "country": "AT", "iata": "VIE", "lat": 48.1850, "lon": 16.3790 },
  { "id": "salzburg",     "name": "Salzburg",     "country": "AT", "iata": "SZG", "lat": 47.8130, "lon": 13.0450 },
  { "id": "london",       "name": "London",       "country": "GB", "iata": "LHR", "lat": 51.5308, "lon": -0.1238 },
  { "id": "manchester",   "name": "Manchester",   "country": "GB", "iata": "MAN", "lat": 53.4771, "lon": -2.2309 },
  { "id": "edinburgh",    "name": "Edinburgh",    "country": "GB", "iata": "EDI", "lat": 55.9521, "lon": -3.1893 },
  { "id": "dublin",       "name": "Dublin",       "country": "IE", "iata": "DUB", "lat": 53.3527, "lon": -6.2494 },
  { "id": "madrid",       "name": "Madrid",       "country": "ES", "iata": "MAD", "lat": 40.4065, "lon": -3.6895 },
  { "id": "barcelona",    "name": "Barcelona",    "country": "ES", "iata": "BCN", "lat": 41.3791, "lon": 2.1402  },
  { "id": "valencia",     "name": "Valencia",     "country": "ES", "iata": "VLC", "lat": 39.4671, "lon": -0.3771 },
  { "id": "seville",      "name": "Seville",      "country": "ES", "iata": "SVQ", "lat": 37.3927, "lon": -5.9720 },
  { "id": "palma",        "name": "Palma",        "country": "ES", "iata": "PMI", "lat": 39.5696, "lon": 2.6502  },
  { "id": "lisbon",       "name": "Lisbon",       "country": "PT", "iata": "LIS", "lat": 38.7677, "lon": -9.0988 },
  { "id": "porto",        "name": "Porto",        "country": "PT", "iata": "OPO", "lat": 41.1475, "lon": -8.5852 },
  { "id": "rome",         "name": "Rome",         "country": "IT", "iata": "FCO", "lat": 41.9012, "lon": 12.5016 },
  { "id": "milan",        "name": "Milan",        "country": "IT", "iata": "MXP", "lat": 45.4863, "lon": 9.2042  },
  { "id": "venice",       "name": "Venice",       "country": "IT", "iata": "VCE", "lat": 45.4414, "lon": 12.3200 },
  { "id": "naples",       "name": "Naples",       "country": "IT", "iata": "NAP", "lat": 40.8529, "lon": 14.2714 },
  { "id": "florence",     "name": "Florence",     "country": "IT", "iata": "FLR", "lat": 43.7764, "lon": 11.2486 },
  { "id": "copenhagen",   "name": "Copenhagen",   "country": "DK", "iata": "CPH", "lat": 55.6728, "lon": 12.5645 },
  { "id": "stockholm",    "name": "Stockholm",    "country": "SE", "iata": "ARN", "lat": 59.3303, "lon": 18.0587 },
  { "id": "oslo",         "name": "Oslo",         "country": "NO", "iata": "OSL", "lat": 59.9108, "lon": 10.7499 },
  { "id": "helsinki",     "name": "Helsinki",     "country": "FI", "iata": "HEL", "lat": 60.1719, "lon": 24.9414 },
  { "id": "warsaw",       "name": "Warsaw",       "country": "PL", "iata": "WAW", "lat": 52.2282, "lon": 21.0034 },
  { "id": "krakow",       "name": "Krakow",       "country": "PL", "iata": "KRK", "lat": 50.0671, "lon": 19.9476 },
  { "id": "gdansk",       "name": "Gdansk",       "country": "PL", "iata": "GDN", "lat": 54.3568, "lon": 18.6439 },
  { "id": "prague",       "name": "Prague",       "country": "CZ", "iata": "PRG", "lat": 50.0832, "lon": 14.4356 },
  { "id": "budapest",     "name": "Budapest",     "country": "HU", "iata": "BUD", "lat": 47.5001, "lon": 19.0840 },
  { "id": "bucharest",    "name": "Bucharest",    "country": "RO", "iata": "OTP", "lat": 44.4462, "lon": 26.0792 },
  { "id": "sofia",        "name": "Sofia",        "country": "BG", "iata": "SOF", "lat": 42.7124, "lon": 23.3197 },
  { "id": "athens",       "name": "Athens",       "country": "GR", "iata": "ATH", "lat": 37.9931, "lon": 23.7224 },
  { "id": "thessaloniki", "name": "Thessaloniki", "country": "GR", "iata": "SKG", "lat": 40.6417, "lon": 22.9369 },
  { "id": "tallinn",      "name": "Tallinn",      "country": "EE", "iata": "TLL", "lat": 59.4417, "lon": 24.7370 },
  { "id": "riga",         "name": "Riga",         "country": "LV", "iata": "RIX", "lat": 56.9412, "lon": 24.1134 },
  { "id": "vilnius",      "name": "Vilnius",      "country": "LT", "iata": "VNO", "lat": 54.6693, "lon": 25.2812 }
]
